City,Lat,Lng,Country,Date,Max Temp,Humidity,Wind Speed,Cloudiness,Max Temp (F)
torbay,47.67,-52.73,CA,1587336766,1.67,92.0,14.9,90.0,35.006
naze,28.37,129.48,JP,1587337038,19.0,77.0,4.6,75.0,66.19999999999999
cabo san lucas,22.89,-109.91,MX,1587337038,27.0,42.0,5.7,5.0,80.6
avarua,-21.21,-159.78,CK,1587337038,29.0,66.0,5.1,2.0,84.19999999999999
hirara,24.8,125.28,JP,1587337038,24.0,94.0,4.6,75.0,75.19999999999999
east london,-33.02,27.91,ZA,1587336763,24.56,54.0,5.97,0.0,76.208
natal,-5.79,-35.21,BR,1587336827,27.0,83.0,2.6,20.0,80.6
red bluff,40.18,-122.24,US,1587337038,21.0,40.0,2.6,20.0,69.80000000000001
concepcion del oro,24.63,-101.42,MX,1587337039,25.31,7.0,7.3,13.0,77.55799999999999
hualmay,-11.1,-77.61,PE,1587337039,21.45,78.0,3.61,21.0,70.61
new norfolk,-42.78,147.06,AU,1587337039,11.67,91.0,3.46,100.0,53.006
cape town,-33.93,18.42,ZA,1587336557,17.78,77.0,7.7,75.0,64.00399999999999
berlevag,70.86,29.09,NO,1587337039,3.0,93.0,8.7,75.0,37.4
upernavik,72.79,-56.15,GL,1587337039,-2.83,84.0,11.74,94.0,26.906
georgetown,5.41,100.34,MY,1587337031,26.67,94.0,1.75,20.0,80.006
ponta do sol,32.67,-17.1,PT,1587337039,14.44,62.0,4.02,13.0,57.992
fuxin,42.02,121.66,CN,1587337040,5.27,63.0,11.4,90.0,41.486
hithadhoo,-0.6,73.08,MV,1587337040,29.31,75.0,4.6,90.0,84.75800000000001
wajima,37.4,136.9,JP,1587337040,11.57,91.0,6.99,100.0,52.826
provideniya,64.38,-173.3,RU,1587337040,-5.31,95.0,6.68,100.0,22.442
new albany,38.29,-85.82,US,1587337040,16.0,51.0,0.86,90.0,60.8
komsomolskiy,40.43,71.72,UZ,1587336777,14.0,50.0,4.1,0.0,57.2
ushuaia,-54.8,-68.3,AR,1587336782,5.0,86.0,9.8,90.0,41.0
da lat,11.95,108.44,VN,1587337040,18.59,57.0,0.39,63.0,65.462
deputatskiy,69.3,139.9,RU,1587337040,-14.07,87.0,2.7,60.0,6.6739999999999995
luanda,-8.84,13.23,AO,1587336801,27.0,88.0,2.6,75.0,80.6
thompson,55.74,-97.86,CA,1587336989,-5.0,79.0,3.1,90.0,23.0
leningradskiy,69.38,178.42,RU,1587337039,-10.21,92.0,4.05,93.0,13.621999999999996
hua hin,12.57,99.96,TH,1587337041,26.95,76.0,2.48,22.0,80.50999999999999
mataura,-46.19,168.86,NZ,1587337041,11.67,74.0,2.68,72.0,53.006
harrisonburg,38.45,-78.87,US,1587337041,17.22,41.0,3.1,1.0,62.995999999999995
tukums,56.97,23.16,LV,1587336965,3.0,93.0,2.1,0.0,37.4
qui nhon,13.77,109.23,VN,1587337041,26.21,79.0,2.34,99.0,79.178
xingcheng,40.62,120.72,CN,1587337042,9.43,48.0,9.96,32.0,48.974000000000004
cockburn town,21.46,-71.14,TC,1587336816,26.21,82.0,7.37,7.0,79.178
vila velha,-20.33,-40.29,BR,1587337042,24.0,73.0,3.6,40.0,75.19999999999999
albany,42.6,-73.97,US,1587336918,16.11,48.0,0.45,90.0,60.998000000000005
punta arenas,-53.15,-70.92,CL,1587336808,6.0,70.0,11.8,20.0,42.8
goundam,16.41,-3.67,ML,1587337042,31.39,28.0,5.77,98.0,88.50200000000001
bredasdorp,-34.53,20.04,ZA,1587336977,13.0,93.0,2.1,6.0,55.400000000000006
chimore,-16.98,-65.13,BO,1587336890,22.23,57.0,1.05,1.0,72.014
yerbogachen,61.28,108.01,RU,1587337042,-4.99,88.0,1.5,0.0,23.018
praia da vitoria,38.73,-27.07,PT,1587337043,14.0,62.0,8.39,20.0,57.2
mahebourg,-20.41,57.7,MU,1587337043,24.0,83.0,5.1,40.0,75.19999999999999
vila franca do campo,37.72,-25.43,PT,1587337017,13.0,62.0,3.1,20.0,55.400000000000006
manta,-0.95,-80.73,EC,1587337043,28.0,61.0,4.6,40.0,82.4
puerto ayora,-0.74,-90.35,EC,1587337006,29.0,70.0,8.2,75.0,84.19999999999999
fortuna,40.6,-124.16,US,1587336808,14.44,81.0,6.2,90.0,57.992
tarko-sale,64.92,77.78,RU,1587337043,1.67,91.0,3.82,100.0,35.006
olafsvik,64.89,-23.71,IS,1587337025,6.88,91.0,9.5,100.0,44.384
ossora,59.24,163.07,RU,1587337044,-5.13,87.0,3.85,72.0,22.766
barrow,71.29,-156.79,US,1587337044,-10.0,78.0,2.6,90.0,14.0
marawi,8.0,124.29,PH,1587337044,25.48,62.0,0.32,61.0,77.864
khatanga,71.97,102.5,RU,1587336782,-4.42,95.0,2.42,34.0,24.044
lebu,-37.62,-73.65,CL,1587337044,13.24,74.0,4.4,100.0,55.832
arraial do cabo,-22.97,-42.03,BR,1587337044,23.15,70.0,2.14,96.0,73.67
dunedin,-45.87,170.5,NZ,1587336783,14.44,36.0,3.58,46.0,57.992
marshalltown,42.05,-92.91,US,1587336998,14.44,24.0,5.7,1.0,57.992
butaritari,3.07,172.79,KI,1587336773,28.55,73.0,3.94,23.0,83.39
castro,-24.79,-50.01,BR,1587337045,13.93,70.0,2.63,34.0,57.074
coquimbo,-29.95,-71.34,CL,1587336834,16.0,87.0,3.1,75.0,60.8
kapaa,22.08,-159.32,US,1587337045,26.0,65.0,3.6,1.0,78.80000000000001
rikitea,-23.12,-134.97,PF,1587336916,25.04,67.0,2.68,100.0,77.072
evensk,61.95,159.23,RU,1587337045,-9.93,92.0,3.9,100.0,14.126000000000001
mayo,38.89,-76.51,US,1587336764,16.67,62.0,4.6,1.0,62.006
palmer,42.16,-72.33,US,1587337045,12.22,53.0,4.92,80.0,53.995999999999995
tuktoyaktuk,69.45,-133.04,CA,1587336901,-12.0,78.0,5.1,90.0,10.400000000000002
ilulissat,69.22,-51.1,GL,1587336878,-1.0,54.0,11.3,100.0,30.2
aswan,24.09,32.91,EG,1587336822,21.39,30.0,3.73,0.0,70.50200000000001
hobart,-42.88,147.33,AU,1587336985,11.67,87.0,3.1,75.0,53.006
dikson,73.51,80.55,RU,1587336762,1.38,89.0,10.18,90.0,34.484
busselton,-33.65,115.33,AU,1587337046,13.33,61.0,9.03,78.0,55.994
catuday,16.29,119.81,PH,1587337046,27.43,76.0,2.34,100.0,81.374
tarut,26.57,50.04,SA,1587337046,25.0,88.0,2.6,97.0,77.0
araguaina,-7.19,-48.21,BR,1587337047,24.73,74.0,0.31,66.0,76.514
vaini,-21.2,-175.2,TO,1587337048,27.0,74.0,4.6,40.0,80.6
carnarvon,-24.87,113.63,AU,1587336980,22.0,88.0,4.6,49.0,71.6
nizhniy kuranakh,58.84,125.49,RU,1587337048,-8.15,86.0,3.24,100.0,17.33
morro bay,35.37,-120.85,US,1587336849,18.33,58.0,2.24,84.0,64.994
port alfred,-33.59,26.89,ZA,1587337048,20.56,82.0,1.79,14.0,69.00800000000001
seymchan,62.88,152.43,RU,1587337048,-11.85,86.0,4.78,100.0,10.669999999999998
saldanha,-33.01,17.94,ZA,1587337049,15.0,82.0,5.7,31.0,59.0
phan thiet,10.93,108.1,VN,1587337049,26.95,72.0,2.35,30.0,80.50999999999999
ancud,-41.87,-73.82,CL,1587337049,13.0,71.0,3.6,75.0,55.400000000000006
constitucion,-35.33,-72.42,CL,1587336895,14.03,68.0,5.68,74.0,57.254000000000005
puerto carreno,6.19,-67.49,CO,1587337049,27.0,78.0,2.1,75.0,80.6
urengoy,65.97,78.37,RU,1587336938,1.29,97.0,3.89,100.0,34.322
hobyo,5.35,48.53,SO,1587337049,28.9,74.0,4.32,100.0,84.02
sattahip,12.67,100.9,TH,1587337049,27.0,83.0,1.5,20.0,80.6
matamoros,25.53,-103.25,MX,1587337049,35.0,8.0,4.1,75.0,95.0
saint anthony,45.02,-93.22,US,1587337050,10.56,23.0,3.1,1.0,51.008
eldorado,-23.79,-54.28,BR,1587337050,19.22,76.0,1.45,0.0,66.596
tsuyama,35.05,134.0,JP,1587337050,13.33,93.0,1.0,75.0,55.994
russell,32.35,-85.2,US,1587337050,15.0,93.0,2.51,90.0,59.0
ostrovnoy,68.05,39.51,RU,1587337033,-3.5,97.0,3.43,74.0,25.7
shu,43.6,73.76,KZ,1587337050,12.22,60.0,5.81,0.0,53.995999999999995
aklavik,68.22,-135.01,CA,1587337050,-6.0,53.0,2.1,90.0,21.200000000000003
kaitangata,-46.28,169.85,NZ,1587337051,13.89,44.0,3.58,52.0,57.001999999999995
panitian,9.1,118.09,PH,1587337051,29.14,69.0,2.88,69.0,84.452
saurimo,-9.66,20.39,AO,1587336845,18.02,71.0,1.29,78.0,64.436
poum,-20.23,164.02,NC,1587337051,27.32,75.0,3.18,99.0,81.176
monticello,45.31,-93.79,US,1587337051,10.56,26.0,4.1,1.0,51.008
luganville,-15.53,167.17,VU,1587337051,28.0,83.0,2.1,75.0,82.4
saint-philippe,-21.36,55.77,RE,1587337051,25.0,73.0,6.2,75.0,77.0
tiksi,71.69,128.87,RU,1587337052,-9.98,91.0,2.82,94.0,14.036000000000001
ucluelet,48.93,-125.55,CA,1587337052,17.22,76.0,3.6,75.0,62.995999999999995
muros,42.78,-9.06,ES,1587336976,11.67,90.0,0.45,62.0,53.006
bathsheba,13.22,-59.52,BB,1587337052,27.0,74.0,8.2,40.0,80.6
pimentel,-6.84,-79.93,PE,1587337052,22.29,78.0,5.55,4.0,72.122
fairbanks,64.84,-147.72,US,1587337052,8.33,93.0,1.11,75.0,46.994
port lincoln,-34.73,135.87,AU,1587337023,16.79,58.0,6.86,100.0,62.221999999999994
luderitz,-26.65,15.16,NA,1587337052,16.0,87.0,3.6,0.0,60.8
saint george,37.1,-113.58,US,1587336796,22.78,28.0,6.7,1.0,73.00399999999999
hermanus,-34.42,19.23,ZA,1587337053,15.56,97.0,0.45,38.0,60.008
faanui,-16.48,-151.75,PF,1587337053,28.24,75.0,6.81,60.0,82.832
butterworth,5.4,100.36,MY,1587337053,26.67,94.0,1.71,20.0,80.006
voykove,45.38,36.44,UA,1587337053,10.05,90.0,0.8,100.0,50.09
kiunga,-6.12,141.29,PG,1587337053,27.01,85.0,0.2,97.0,80.618
fukue,32.69,128.84,JP,1587337053,15.13,78.0,9.47,75.0,59.234
providencia,28.72,-111.58,MX,1587337053,29.44,23.0,3.13,74.0,84.99199999999999
jamestown,42.1,-79.24,US,1587336996,8.89,75.0,6.7,90.0,48.001999999999995
kodiak,57.79,-152.41,US,1587337054,7.0,87.0,4.1,75.0,44.6
talnakh,69.49,88.4,RU,1587337030,3.0,74.0,11.0,100.0,37.4
tahta,26.77,31.5,EG,1587337054,24.0,38.0,2.1,0.0,75.19999999999999
taltal,-25.4,-70.48,CL,1587337054,16.04,75.0,0.93,0.0,60.872
kambove,-10.88,26.6,CD,1587337054,14.97,66.0,2.43,14.0,58.946
canchungo,12.07,-16.03,GW,1587337054,26.0,65.0,3.1,61.0,78.80000000000001
touros,-5.2,-35.46,BR,1587336763,26.0,88.0,1.5,20.0,78.80000000000001
atuona,-9.8,-139.03,PF,1587337054,28.27,73.0,5.8,38.0,82.886
garowe,8.41,48.48,SO,1587337055,25.15,67.0,4.26,32.0,77.27
chokurdakh,70.63,147.92,RU,1587337055,-13.82,94.0,5.15,86.0,7.123999999999999
praya,14.92,-23.51,CV,1587337055,23.0,64.0,8.7,20.0,73.4
zirandaro,18.45,-100.98,MX,1587337055,39.77,19.0,3.93,7.0,103.58600000000001
nizhniy lomov,53.53,43.68,RU,1587337055,3.38,75.0,2.36,97.0,38.084
guerrero negro,27.98,-114.06,MX,1587337003,17.83,68.0,9.58,93.0,64.094
weifang,36.71,119.1,CN,1587337055,13.14,38.0,9.44,41.0,55.652
sao felix do xingu,-6.64,-51.99,BR,1587337055,23.26,88.0,0.39,99.0,73.868
sable-sur-sarthe,47.84,-0.33,FR,1587337056,14.0,82.0,3.1,100.0,57.2
longyearbyen,78.22,15.64,SJ,1587337056,-2.0,86.0,16.5,90.0,28.4
norman wells,65.28,-126.83,CA,1587337056,-2.0,68.0,4.6,90.0,28.4
hamada,34.88,132.08,JP,1587337056,13.33,60.0,6.33,81.0,55.994
havelock,34.88,-76.9,US,1587337056,20.0,88.0,1.79,100.0,68.0
belen,36.49,36.22,TR,1587337056,17.78,82.0,4.6,40.0,64.00399999999999
mrakovo,52.72,56.62,RU,1587337056,4.28,71.0,1.85,100.0,39.704
kailua,21.4,-157.74,US,1587337056,29.0,51.0,4.1,20.0,84.19999999999999
valley city,46.92,-98.0,US,1587337057,11.0,31.0,9.8,1.0,51.8
witbank,-25.87,29.23,ZA,1587337057,11.72,53.0,2.01,1.0,53.096000000000004
yellowknife,62.46,-114.35,CA,1587336915,-3.0,53.0,8.2,20.0,26.6
qaanaaq,77.48,-69.36,GL,1587337057,-8.99,84.0,7.33,75.0,15.817999999999998
kavaratti,10.57,72.64,IN,1587337057,29.49,69.0,2.32,42.0,85.082
taicheng,38.73,113.23,CN,1587337057,5.6,33.0,8.14,0.0,42.08
zhigansk,66.77,123.37,RU,1587336767,-8.05,93.0,3.84,100.0,17.509999999999998
severo-kurilsk,50.68,156.12,RU,1587337057,-0.57,91.0,4.42,73.0,30.974
newport,51.59,-3.0,GB,1587337058,10.0,74.0,0.45,37.0,50.0
te anau,-45.42,167.72,NZ,1587337058,10.97,57.0,3.47,58.0,51.745999999999995
drayton valley,53.22,-114.99,CA,1587337058,11.07,55.0,2.54,61.0,51.926
lorengau,-2.02,147.27,PG,1587337034,29.15,75.0,3.42,46.0,84.47
mackay,-21.15,149.2,AU,1587337058,29.44,88.0,3.6,90.0,84.99199999999999
turan,16.07,108.22,VN,1587336911,25.0,83.0,2.1,20.0,77.0
sur,22.57,59.53,OM,1587337058,28.78,46.0,3.72,1.0,83.804
flin flon,54.77,-101.86,CA,1587336995,3.0,55.0,8.7,40.0,37.4
mahon,39.89,4.27,ES,1587337059,16.0,100.0,3.6,100.0,60.8
asau,46.43,26.4,RO,1587337059,8.0,87.0,4.1,75.0,46.4
codrington,-38.27,141.97,AU,1587337059,15.82,60.0,10.61,62.0,60.476
alofi,-19.06,-169.92,NU,1587337059,29.0,79.0,6.2,33.0,84.19999999999999
bengkulu,-3.8,102.27,ID,1587337059,25.63,83.0,1.84,84.0,78.13399999999999
tefe,-3.35,-64.71,BR,1587337059,24.15,94.0,0.37,96.0,75.47
mar del plata,-38.0,-57.56,AR,1587337059,20.0,77.0,4.1,29.0,68.0
hilo,19.73,-155.09,US,1587336986,28.0,48.0,5.7,1.0,82.4
bereda,43.27,-7.54,ES,1587337059,10.0,100.0,0.21,56.0,50.0
rawson,-43.3,-65.1,AR,1587336810,17.12,31.0,7.27,94.0,62.816
loandjili,-4.76,11.86,CG,1587337060,26.1,86.0,0.75,86.0,78.98
ewa beach,21.32,-158.01,US,1587337021,28.0,61.0,4.6,1.0,82.4
colares,38.8,-9.45,PT,1587337060,14.44,85.0,4.4,98.0,57.992
victoria,22.29,114.16,HK,1587336961,24.44,88.0,1.34,85.0,75.99199999999999
forestville,38.85,-76.88,US,1587337060,18.89,39.0,6.2,20.0,66.00200000000001
beloha,-25.17,45.05,MG,1587336851,21.62,76.0,7.16,0.0,70.916
baykit,61.67,96.37,RU,1587337013,-2.83,90.0,0.83,1.0,26.906
faya,18.39,42.45,SA,1587337061,19.0,72.0,1.57,89.0,66.19999999999999
fougamou,-1.22,10.58,GA,1587337061,22.89,92.0,0.94,100.0,73.202
smithers,54.78,-127.17,CA,1587337061,17.0,36.0,2.6,5.0,62.599999999999994
alice springs,-23.7,133.88,AU,1587337061,27.0,28.0,6.7,1.0,80.6
hearst,49.68,-83.67,CA,1587337061,-6.2,92.0,0.88,98.0,20.84
barranca,-10.75,-77.77,PE,1587337061,22.47,73.0,4.26,26.0,72.446
hay river,60.82,-115.8,CA,1587337062,1.0,74.0,5.1,75.0,33.8
jalu,29.03,21.55,LY,1587337062,21.75,24.0,3.59,38.0,71.15
nome,64.5,-165.41,US,1587336904,4.44,86.0,2.6,90.0,39.992000000000004
bluff,-46.6,168.33,NZ,1587337055,11.67,74.0,2.68,78.0,53.006
abnub,27.27,31.15,EG,1587337062,18.0,52.0,4.1,0.0,64.4
richmond,37.55,-77.46,US,1587337035,19.0,45.0,4.6,75.0,66.19999999999999
salalah,17.02,54.09,OM,1587337062,28.0,69.0,2.1,40.0,82.4
tateyama,34.98,139.87,JP,1587337062,10.56,93.0,2.1,75.0,51.008
nikolskoye,59.7,30.79,RU,1587337062,3.0,94.0,1.0,67.0,37.4
wesselsbron,-27.85,26.37,ZA,1587337063,17.2,31.0,1.44,3.0,62.96
troitsko-pechorsk,62.71,56.2,RU,1587337063,1.24,93.0,2.06,100.0,34.232
kysyl-syr,63.9,122.76,RU,1587337063,-8.83,92.0,2.12,63.0,16.106
isangel,-19.55,169.27,VU,1587336825,28.0,83.0,6.96,75.0,82.4
vanavara,60.34,102.28,RU,1587337063,-3.38,88.0,0.68,0.0,25.916
roald,62.58,6.13,NO,1587337063,5.0,93.0,4.6,0.0,41.0
ribeira grande,38.52,-28.7,PT,1587337063,13.71,63.0,5.6,7.0,56.678
asyut,27.18,31.18,EG,1587337063,18.0,52.0,4.1,0.0,64.4
agadir,30.42,-9.6,MA,1587337063,18.0,63.0,4.6,20.0,64.4
lompoc,34.64,-120.46,US,1587336873,17.78,59.0,7.7,40.0,64.00399999999999
madimba,-10.4,40.33,TZ,1587337064,25.0,94.0,6.2,20.0,77.0
yulara,-25.24,130.99,AU,1587336998,23.0,38.0,3.1,25.0,73.4
isla mujeres,21.23,-86.73,MX,1587337064,29.0,70.0,7.2,40.0,84.19999999999999
bantou,26.22,117.49,CN,1587337064,22.49,66.0,0.68,16.0,72.482
wattegama,6.8,81.48,LK,1587337064,24.28,88.0,1.0,62.0,75.70400000000001
hamilton,39.18,-84.53,US,1587337064,14.0,54.0,3.6,90.0,57.2
ketchikan,55.34,-131.65,US,1587337064,11.0,81.0,6.7,75.0,51.8
terrace,54.52,-128.6,CA,1587337064,17.0,42.0,6.7,20.0,62.599999999999994
mulege,26.88,-111.98,MX,1587337065,23.96,37.0,1.09,46.0,75.128
pinehurst,35.2,-79.47,US,1587337065,19.44,55.0,2.6,1.0,66.992
seminole,28.71,-81.21,US,1587337065,31.67,56.0,1.79,79.0,89.006
ishigaki,24.34,124.16,JP,1587337065,25.0,100.0,3.1,75.0,77.0
grand gaube,-20.01,57.66,MU,1587336904,24.0,83.0,5.1,40.0,75.19999999999999
pangnirtung,66.15,-65.71,CA,1587337065,-18.46,85.0,1.84,36.0,-1.2280000000000015
aktau,43.65,51.2,KZ,1587337065,7.0,100.0,1.0,12.0,44.6
seinajoki,62.79,22.83,FI,1587337065,4.44,80.0,1.5,6.0,39.992000000000004
sao filipe,14.9,-24.5,CV,1587337066,22.12,74.0,8.81,0.0,71.816
kashi,39.45,75.98,CN,1587337066,11.0,76.0,3.0,75.0,51.8
pevek,69.7,170.31,RU,1587336826,-12.27,94.0,3.12,100.0,9.914000000000001
vestmannaeyjar,63.44,-20.27,IS,1587337066,7.82,93.0,12.56,100.0,46.076
marzuq,14.4,46.47,YE,1587337066,22.37,47.0,1.3,100.0,72.266
sitka,57.05,-135.33,US,1587337066,10.0,81.0,3.6,90.0,50.0
vao,-22.67,167.48,NC,1587337066,25.57,81.0,6.88,100.0,78.026
sao joao da barra,-21.64,-41.05,BR,1587336936,22.03,77.0,3.01,71.0,71.654
bambous virieux,-20.34,57.76,MU,1587336904,24.0,83.0,5.1,40.0,75.19999999999999
xuddur,4.12,43.89,SO,1587337067,24.7,67.0,2.56,100.0,76.46
purpe,64.48,76.69,RU,1587337067,1.67,91.0,4.64,99.0,35.006
pisco,-13.7,-76.22,PE,1587336981,23.0,69.0,9.3,0.0,73.4
college,64.86,-147.8,US,1587337067,8.33,87.0,2.1,90.0,46.994
kabare,-2.47,28.82,CD,1587337067,15.64,57.0,0.52,88.0,60.152
kieta,-6.22,155.63,PG,1587337067,29.61,65.0,1.39,90.0,85.298
mercedes,-34.65,-59.43,AR,1587337068,22.22,58.0,0.45,0.0,71.99600000000001
souillac,-20.52,57.52,MU,1587336774,24.0,83.0,5.1,40.0,75.19999999999999
chelmsford,51.74,0.47,GB,1587336887,7.78,82.0,5.63,0.0,46.004000000000005
milkovo,54.72,158.62,RU,1587337068,-2.87,79.0,2.41,33.0,26.834
tuatapere,-46.13,167.68,NZ,1587337068,11.67,74.0,2.68,35.0,53.006
pasighat,28.07,95.33,IN,1587337068,19.37,73.0,1.22,92.0,66.866
kuytun,54.34,101.5,RU,1587337068,-2.87,79.0,2.02,0.0,26.834
lipari,38.47,14.95,IT,1587337069,17.78,78.0,1.79,100.0,64.00399999999999
dawlatabad,36.41,64.91,AF,1587337069,16.5,44.0,0.16,0.0,61.7
loreto,22.27,-101.97,MX,1587337069,28.34,11.0,8.05,3.0,83.012
rehoboth,-23.32,17.08,NA,1587337069,20.93,36.0,2.64,25.0,69.674
coria,39.99,-6.54,ES,1587337069,11.67,81.0,0.45,0.0,53.006
gandajika,-6.75,23.95,CD,1587337069,19.79,79.0,1.39,100.0,67.622
clyde river,70.47,-68.59,CA,1587337069,-15.0,71.0,7.2,1.0,5.0
leshukonskoye,64.9,45.76,RU,1587337069,-0.53,99.0,1.74,98.0,31.046
nhulunbuy,-12.23,136.77,AU,1587337070,29.59,73.0,4.32,0.0,85.262
tasiilaq,65.61,-37.64,GL,1587337042,0.0,92.0,0.5,100.0,32.0
alekseyevsk,57.84,108.35,RU,1587337070,-4.77,85.0,2.78,0.0,23.414
kandrian,-6.22,149.55,PG,1587337070,30.15,68.0,2.24,55.0,86.27
miguel pereira,-22.45,-43.47,BR,1587337070,23.0,69.0,3.1,40.0,73.4
vaasa,63.1,21.62,FI,1587337070,4.0,86.0,1.0,0.0,39.2
tirlyanskiy,54.21,58.58,RU,1587337070,1.24,73.0,1.04,69.0,34.232
lavrentiya,65.58,-171.0,RU,1587337071,-6.01,91.0,3.65,100.0,21.182000000000002
ayr,55.46,-4.63,GB,1587336901,7.22,70.0,2.1,0.0,44.995999999999995
veraval,20.9,70.37,IN,1587337071,25.91,61.0,4.67,1.0,78.638
purworejo,-6.79,111.92,ID,1587337071,27.59,77.0,1.26,85.0,81.662
khairpur nathan shah,27.09,67.73,PK,1587337071,25.79,44.0,1.16,85.0,78.422
saint-pierre,-21.34,55.48,RE,1587337071,25.0,73.0,6.2,75.0,77.0
young,-32.68,-57.63,UY,1587337071,20.56,70.0,2.07,0.0,69.00800000000001
avera,33.19,-82.53,US,1587336796,14.0,94.0,2.6,90.0,57.2
pangai,-19.8,-174.35,TO,1587337071,29.0,70.0,6.7,20.0,84.19999999999999
grindavik,63.84,-22.43,IS,1587337072,8.0,100.0,13.9,90.0,46.4
waitati,-45.75,170.57,NZ,1587337009,14.44,36.0,3.58,32.0,57.992
port elizabeth,-33.92,25.57,ZA,1587337072,20.0,68.0,6.2,29.0,68.0
gardabani,41.46,45.09,GE,1587337072,15.0,51.0,9.3,55.0,59.0
egvekinot,66.32,-179.17,RU,1587337025,-11.11,90.0,6.09,100.0,12.001999999999999
okhotsk,59.38,143.3,RU,1587337072,-9.16,84.0,5.24,3.0,15.512
kavieng,-2.57,150.8,PG,1587337072,28.77,75.0,3.19,78.0,83.786
sangin,32.07,64.84,AF,1587337072,15.74,46.0,0.59,0.0,60.332
sulphur,30.24,-93.38,US,1587337072,26.0,83.0,6.7,90.0,78.80000000000001
novyy buh,47.69,32.52,UA,1587337073,8.0,36.0,2.0,100.0,46.4
xichang,27.9,102.26,CN,1587337073,15.94,36.0,0.32,29.0,60.69199999999999
acapulco,16.86,-99.89,MX,1587336857,29.0,74.0,4.1,5.0,84.19999999999999
abha,18.22,42.51,SA,1587336814,19.0,72.0,0.85,93.0,66.19999999999999
puerto escondido,15.85,-97.07,MX,1587337074,30.0,79.0,4.1,5.0,86.0
merauke,-8.47,140.33,ID,1587337074,29.53,73.0,4.54,50.0,85.154
gornyy,55.12,83.91,RU,1587337075,6.14,69.0,0.48,81.0,43.052
shimoda,34.67,138.95,JP,1587337055,9.44,93.0,5.33,100.0,48.992
destin,30.39,-86.5,US,1587337059,25.56,73.0,2.1,20.0,78.00800000000001
kununurra,-15.77,128.73,AU,1587337075,26.0,83.0,1.5,72.0,78.80000000000001
peterongan,-7.54,112.28,ID,1587337075,26.35,82.0,0.29,98.0,79.43
wawa,9.9,4.42,NG,1587337075,28.45,62.0,5.01,90.0,83.21
burnie,-41.07,145.92,AU,1587337075,12.78,9.0,5.36,100.0,55.004000000000005
saint-joseph,-21.37,55.62,RE,1587337075,25.0,73.0,6.2,75.0,77.0
bethel,41.37,-73.41,US,1587337076,14.0,35.0,4.6,1.0,57.2
malazgirt,39.14,42.54,TR,1587337076,6.75,45.0,1.17,22.0,44.15
paamiut,61.99,-49.67,GL,1587337042,-3.66,90.0,6.03,4.0,25.412
hofn,64.25,-15.21,IS,1587337076,6.69,84.0,3.73,99.0,44.042
tenenkou,14.46,-4.92,ML,1587337076,32.11,27.0,5.47,100.0,89.798
inhambane,-23.86,35.38,MZ,1587337076,22.89,83.0,4.48,14.0,73.202
suicheng,33.9,117.93,CN,1587337076,16.11,68.0,4.54,93.0,60.998000000000005
dodge city,37.75,-100.02,US,1587336993,20.0,49.0,1.5,1.0,68.0
ulladulla,-35.35,150.47,AU,1587337076,14.44,71.0,3.6,100.0,57.992
husavik,66.04,-17.34,IS,1587337025,7.0,70.0,12.3,36.0,44.6
chuy,-33.7,-53.46,UY,1587336783,18.1,89.0,3.35,23.0,64.58
gunnedah,-30.98,150.25,AU,1587337077,11.0,81.0,2.1,100.0,51.8
atambua,-9.11,124.89,ID,1587337077,26.04,67.0,0.87,11.0,78.872
hasaki,35.73,140.83,JP,1587337077,9.0,93.0,4.6,75.0,48.2
aksarka,66.56,67.8,RU,1587337077,0.61,94.0,3.1,100.0,33.098
lagos,6.58,3.75,NG,1587337077,27.0,88.0,1.0,20.0,80.6
amudat,1.95,34.95,UG,1587337077,18.88,54.0,1.14,100.0,65.984
mayumba,-3.43,10.66,GA,1587337077,26.16,85.0,5.51,90.0,79.088
scarborough,54.28,-0.4,GB,1587337077,6.67,86.0,2.24,0.0,44.006
russellville,35.28,-93.13,US,1587337078,13.89,93.0,3.1,90.0,57.001999999999995
zwedru,6.07,-8.13,LR,1587337078,23.61,91.0,1.41,100.0,74.49799999999999
kholm-zhirkovskiy,55.52,33.47,RU,1587337078,-0.48,91.0,3.39,0.0,31.136
kachug,53.96,105.88,RU,1587337078,-3.86,74.0,3.73,0.0,25.052
sao miguel do araguaia,-13.28,-50.16,BR,1587337023,23.19,83.0,1.0,77.0,73.74199999999999
taoudenni,22.68,-3.98,ML,1587337078,25.54,21.0,2.87,0.0,77.972
obo,5.4,26.49,CF,1587337078,20.88,78.0,2.03,98.0,69.584
srednekolymsk,67.45,153.68,RU,1587337078,-12.49,93.0,5.45,86.0,9.517999999999997
bonthe,7.53,-12.51,SL,1587337078,27.47,79.0,3.56,100.0,81.446
villamar,20.02,-102.6,MX,1587337079,30.61,14.0,4.16,15.0,87.098
laguna verde,15.2,-88.17,HN,1587337079,33.0,55.0,8.2,20.0,91.4
thai binh,20.45,106.33,VN,1587336959,26.0,88.0,3.6,74.0,78.80000000000001
narsaq,60.92,-46.05,GL,1587337079,0.0,89.0,0.5,0.0,32.0
pakxan,18.38,103.66,LA,1587337079,27.99,56.0,0.8,55.0,82.382
laguna,38.42,-121.42,US,1587336815,21.11,52.0,5.1,1.0,69.99799999999999
matara,5.95,80.54,LK,1587337080,25.47,90.0,3.13,20.0,77.846
maracacume,-2.04,-45.96,BR,1587337080,24.14,92.0,1.46,79.0,75.452
esil,51.96,66.4,KZ,1587337080,10.64,74.0,1.79,94.0,51.152
svetlaya,46.54,138.33,RU,1587337080,5.51,73.0,0.73,100.0,41.918
nauta,-4.51,-73.58,PE,1587337080,24.68,67.0,0.63,30.0,76.424
san juan,-31.54,-68.54,AR,1587336990,24.27,31.0,3.17,0.0,75.686
cahors,44.42,1.33,FR,1587337080,14.44,93.0,1.0,90.0,57.992
antofagasta,-23.65,-70.4,CL,1587337080,18.0,77.0,5.1,20.0,64.4
ouallam,14.32,2.09,NE,1587337081,32.01,32.0,5.54,37.0,89.618
serebryanyy bor,56.8,124.8,RU,1587337081,-9.81,81.0,6.86,43.0,14.341999999999999
twin falls,42.56,-114.46,US,1587336868,17.0,31.0,4.6,20.0,62.599999999999994
maumere,-8.62,122.21,ID,1587337081,28.62,62.0,0.28,41.0,83.516
pundaguitan,6.37,126.17,PH,1587337081,27.73,81.0,5.28,100.0,81.914
lichinga,-13.31,35.24,MZ,1587337081,13.57,70.0,2.26,44.0,56.426
bilma,18.69,12.92,NE,1587337081,28.99,12.0,2.34,42.0,84.182
saskylakh,71.92,114.08,RU,1587337081,-8.25,95.0,1.61,2.0,17.15
manali,13.17,80.27,IN,1587336853,28.89,88.0,2.1,40.0,84.00200000000001
anadyr,64.75,177.48,RU,1587337082,-7.0,85.0,2.0,96.0,19.4
dryden,49.78,-92.75,CA,1587337082,1.0,43.0,9.8,90.0,33.8
lithakia,37.72,20.83,GR,1587337068,12.0,93.0,1.5,70.0,53.599999999999994
san patricio,19.22,-104.7,MX,1587337082,25.0,78.0,7.7,5.0,77.0
merrill,45.18,-89.68,US,1587337082,9.0,24.0,3.6,1.0,48.2
camacha,33.08,-16.33,PT,1587337082,16.0,72.0,3.6,20.0,60.8
brigantine,39.41,-74.36,US,1587337083,14.0,50.0,4.1,1.0,57.2
kroya,-7.63,109.25,ID,1587337083,26.82,80.0,0.99,83.0,80.276
sakakah,29.97,40.21,SA,1587337083,21.0,35.0,4.1,2.0,69.80000000000001
krasnogorodsk,56.83,28.28,RU,1587337083,-0.74,96.0,2.49,26.0,30.668
esperance,-33.87,121.9,AU,1587336999,11.0,87.0,3.6,0.0,51.8
nanortalik,60.14,-45.24,GL,1587336914,-2.0,89.0,4.23,6.0,28.4
mount gambier,-37.83,140.77,AU,1587336941,14.0,76.0,4.6,90.0,57.2
ponta delgada,37.73,-25.67,PT,1587337083,13.0,62.0,3.1,20.0,55.400000000000006
samarai,-10.62,150.67,PG,1587337049,28.72,77.0,3.14,74.0,83.696
gazli,40.13,63.45,UZ,1587337084,18.76,25.0,2.51,0.0,65.768
xiongzhou,25.12,114.3,CN,1587337084,21.83,73.0,1.41,36.0,71.294
tingo maria,-9.29,-76.01,PE,1587337084,21.95,57.0,0.57,28.0,71.50999999999999
hovd,48.01,91.64,MN,1587337084,2.84,36.0,0.24,0.0,37.112
haimen,23.19,116.61,CN,1587337084,23.0,94.0,0.7,57.0,73.4
altamirano,16.88,-92.15,MX,1587337084,20.06,47.0,0.54,79.0,68.108
west wendover,40.74,-114.07,US,1587337084,12.0,58.0,2.6,90.0,53.599999999999994
yeppoon,-23.13,150.73,AU,1587337084,25.0,73.0,3.6,2.0,77.0
harbour breton,47.48,-55.8,CA,1587337085,3.31,93.0,10.11,100.0,37.958
ico,-6.4,-38.86,BR,1587337085,24.15,83.0,0.12,70.0,75.47
havre-saint-pierre,50.23,-63.6,CA,1587337037,0.0,90.0,5.7,1.0,32.0
le port,-20.94,55.29,RE,1587337085,23.0,73.0,4.1,20.0,73.4
san cristobal,7.77,-72.22,VE,1587336808,32.0,52.0,1.0,40.0,89.6
santona,43.44,-3.46,ES,1587337085,14.0,87.0,3.1,90.0,57.2
toamasina,-18.17,49.38,MG,1587337085,23.66,88.0,5.46,93.0,74.588
ardino,41.58,25.13,BG,1587337085,15.0,72.0,1.5,90.0,59.0
sibu,2.3,111.82,MY,1587337085,26.0,94.0,0.5,75.0,78.80000000000001
takanosu,40.22,140.37,JP,1587337086,9.0,57.0,1.5,75.0,48.2
cabedelo,-6.98,-34.83,BR,1587336803,26.0,88.0,1.5,20.0,78.80000000000001
lahij,13.17,44.58,YE,1587337086,24.6,71.0,2.24,99.0,76.28
pacific grove,36.62,-121.92,US,1587337086,17.0,59.0,4.1,20.0,62.599999999999994
jingdezhen,29.29,117.21,CN,1587337086,17.19,74.0,0.95,4.0,62.942
nador,35.17,-2.93,MA,1587337086,18.0,59.0,7.7,31.0,64.4
katsuura,35.13,140.3,JP,1587337006,10.56,93.0,2.1,75.0,51.008
yinchuan,38.47,106.27,CN,1587337086,5.56,17.0,0.45,52.0,42.007999999999996
cartagena,10.4,-75.51,CO,1587337086,29.0,74.0,4.6,40.0,84.19999999999999
ko samui,9.54,99.94,TH,1587337087,29.0,83.0,3.6,20.0,84.19999999999999
nsanje,-16.92,35.26,MW,1587337087,19.68,92.0,1.09,5.0,67.424
lata,40.16,-8.33,PT,1587337087,12.22,88.0,0.86,56.0,53.995999999999995
moctezuma,29.8,-109.67,MX,1587337087,27.31,12.0,6.81,51.0,81.158
cidreira,-30.18,-50.21,BR,1587337087,20.04,85.0,7.57,0.0,68.072
anori,-3.77,-61.64,BR,1587337087,24.34,93.0,0.83,89.0,75.81200000000001
half moon bay,37.46,-122.43,US,1587337087,19.44,62.0,3.6,75.0,66.992
kuusamo,65.97,29.18,FI,1587337087,2.0,80.0,3.6,75.0,35.6
paracatu,-17.22,-46.87,BR,1587337088,20.04,77.0,1.37,41.0,68.072
vitoria,-20.32,-40.34,BR,1587336844,24.0,73.0,3.6,40.0,75.19999999999999
lasa,46.62,10.7,IT,1587337085,9.0,87.0,1.35,75.0,48.2
saint-vallier,46.64,4.37,FR,1587337088,14.44,87.0,0.5,95.0,57.992
ulaangom,49.98,92.07,MN,1587337088,3.48,47.0,1.09,0.0,38.263999999999996
wynyard,-41.0,145.72,AU,1587337088,12.78,9.0,5.36,100.0,55.004000000000005
marigot,18.07,-63.08,MF,1587337088,28.0,65.0,4.6,20.0,82.4
vardo,70.37,31.11,NO,1587337089,3.0,86.0,9.8,75.0,37.4
vila,42.03,-8.16,PT,1587337089,11.0,93.0,1.0,27.0,51.8
wuda,39.5,106.71,CN,1587337090,3.31,36.0,4.12,0.0,37.958
phalaborwa,-23.94,31.14,ZA,1587337090,18.0,88.0,3.1,4.0,64.4
lodja,-3.48,23.43,CD,1587337090,20.94,85.0,0.94,100.0,69.69200000000001
vermillion,42.78,-96.93,US,1587337091,12.78,40.0,2.1,75.0,55.004000000000005
yaransk,57.3,47.89,RU,1587337091,2.03,79.0,2.28,98.0,35.653999999999996
channel-port aux basques,47.57,-59.14,CA,1587337091,0.86,92.0,9.28,100.0,33.548
richards bay,-28.78,32.04,ZA,1587337040,19.82,79.0,4.26,0.0,67.676
yenagoa,4.92,6.26,NG,1587336864,24.21,90.0,0.67,95.0,75.578
maarianhamina,60.1,19.93,AX,1587337091,2.0,81.0,0.5,24.0,35.6
nishihara,26.18,127.76,JP,1587337091,19.0,93.0,6.7,90.0,66.19999999999999
upata,8.01,-62.4,VE,1587337092,24.8,64.0,2.91,60.0,76.64
kassiopi,39.79,19.92,GR,1587337092,14.44,87.0,1.33,72.0,57.992
meulaboh,4.14,96.13,ID,1587337092,26.02,83.0,1.72,51.0,78.836
airai,-8.93,125.41,TL,1587336795,19.56,52.0,1.25,0.0,67.208
atherton,53.52,-2.49,GB,1587337092,7.78,66.0,3.13,0.0,46.004000000000005
fort saint james,54.43,-124.25,CA,1587337092,16.34,47.0,1.51,2.0,61.412
vaitape,-16.52,-151.75,PF,1587337030,28.72,75.0,6.84,59.0,83.696
pomuch,20.13,-90.18,MX,1587337092,36.0,44.0,5.1,40.0,96.8
santa cecilia,-26.96,-50.43,BR,1587337093,10.39,73.0,1.22,33.0,50.702
clovis,36.83,-119.7,US,1587337093,23.89,43.0,2.82,75.0,75.00200000000001
sola,-13.88,167.55,VU,1587337093,29.0,89.0,2.6,75.0,84.19999999999999
yokadouma,3.52,15.05,CM,1587337093,20.97,82.0,0.68,94.0,69.74600000000001
zyryanka,65.75,150.85,RU,1587337093,-12.65,83.0,2.38,4.0,9.229999999999997
palestine,31.92,35.2,PS,1587336874,20.0,77.0,2.6,0.0,68.0
imbituba,-28.24,-48.67,BR,1587337077,20.0,77.0,2.1,1.0,68.0
los llanos de aridane,28.66,-17.92,ES,1587337074,18.0,72.0,4.6,20.0,64.4
marsh harbour,26.54,-77.06,BS,1587337093,26.75,78.0,5.47,42.0,80.15
wladyslawowo,54.79,18.4,PL,1587337094,3.33,69.0,3.87,0.0,37.994
milledgeville,33.08,-83.23,US,1587337094,12.0,100.0,1.5,90.0,53.599999999999994
banda aceh,5.56,95.32,ID,1587337094,26.49,81.0,2.17,66.0,79.682
amboasary,-25.03,46.38,MG,1587337094,20.49,89.0,3.46,0.0,68.882
ranghulu,46.65,124.87,CN,1587337094,3.16,85.0,6.6,100.0,37.688
buraydah,26.33,43.98,SA,1587337094,23.0,53.0,5.1,40.0,73.4
abonnema,4.71,6.79,NG,1587337094,25.02,85.0,0.92,99.0,77.036
coahuayana,18.73,-103.68,MX,1587337094,28.87,56.0,3.12,14.0,83.96600000000001
muisne,0.6,-80.03,EC,1587337095,29.0,79.0,3.6,40.0,84.19999999999999
fort frances,48.6,-93.4,CA,1587337095,5.56,35.0,4.6,90.0,42.007999999999996
sioux lookout,50.1,-91.92,CA,1587337095,2.0,40.0,7.2,90.0,35.6
teruel,40.67,-0.67,ES,1587337095,15.0,93.0,2.1,100.0,59.0
thinadhoo,0.53,72.93,MV,1587337001,29.22,75.0,4.71,90.0,84.596
bay saint louis,30.31,-89.33,US,1587337095,28.0,65.0,6.2,40.0,82.4
basoko,1.24,23.62,CD,1587337095,22.14,84.0,0.48,77.0,71.852
aksu,41.12,80.26,CN,1587337095,11.16,51.0,1.34,99.0,52.088
kedrovyy,56.17,91.82,RU,1587337096,-3.0,42.0,1.0,0.0,26.6
buchanan,5.88,-10.05,LR,1587337096,27.0,94.0,1.51,40.0,80.6
cherskiy,68.75,161.3,RU,1587336907,-12.76,93.0,3.54,100.0,9.032
kirakira,-10.45,161.92,SB,1587337049,29.04,73.0,1.47,96.0,84.27199999999999
cayenne,4.93,-52.33,GF,1587337096,26.0,94.0,4.85,40.0,78.80000000000001
turbo,8.09,-76.73,CO,1587337096,31.0,62.0,5.1,20.0,87.80000000000001
tongliao,43.61,122.27,CN,1587337096,0.61,87.0,13.15,100.0,33.098
trebinje,42.71,18.34,BA,1587337096,16.0,55.0,4.1,100.0,60.8
osmena,10.52,119.93,PH,1587337097,28.83,80.0,7.05,62.0,83.894
kalmunai,7.42,81.82,LK,1587336851,27.73,79.0,2.29,65.0,81.914
tuy hoa,13.08,109.3,VN,1587336852,26.02,78.0,1.93,99.0,78.836
sumenep,-7.02,113.87,ID,1587337097,27.99,74.0,0.22,100.0,82.382
lafia,8.48,8.52,NG,1587337097,24.91,76.0,2.47,100.0,76.838
tahe,52.33,124.73,CN,1587337097,-5.84,79.0,5.98,100.0,21.488
baksheyevo,55.71,39.88,RU,1587337097,1.25,86.0,1.29,82.0,34.25
kahului,20.89,-156.47,US,1587336869,29.0,48.0,4.6,40.0,84.19999999999999
gasa,31.5,34.47,PS,1587337098,17.78,74.0,3.74,0.0,64.00399999999999
nadym,65.53,72.52,RU,1587337098,-0.01,97.0,5.48,99.0,31.982
barcelona,41.39,2.16,ES,1587336866,16.11,93.0,7.2,75.0,60.998000000000005
saint-francois,46.42,3.91,FR,1587337098,14.44,87.0,0.5,96.0,57.992
slavgorod,53.0,78.64,RU,1587337098,12.11,40.0,2.36,25.0,53.798
bulgan,48.81,103.53,MN,1587337098,-3.58,55.0,4.45,4.0,25.556
mecca,21.43,39.83,SA,1587337098,23.42,73.0,0.73,100.0,74.156
katangli,51.71,143.23,RU,1587337098,2.94,79.0,1.52,100.0,37.292
kaeo,-35.1,173.78,NZ,1587337098,16.11,94.0,2.17,100.0,60.998000000000005
henties bay,-22.12,14.28,NA,1587337044,14.44,93.0,0.89,5.0,57.992
mananara,-16.17,49.77,MG,1587337099,23.96,83.0,3.8,47.0,75.128
chernyshevskiy,63.01,112.47,RU,1587337099,-7.45,91.0,1.28,42.0,18.59
westport,41.14,-73.36,US,1587336908,13.33,62.0,9.8,1.0,55.994
fare,-16.7,-151.02,PF,1587337099,28.73,75.0,7.86,63.0,83.714
kulhudhuffushi,6.62,73.07,MV,1587337099,30.18,69.0,3.82,36.0,86.324
wiarton,44.74,-81.13,CA,1587337099,3.89,59.0,8.2,20.0,39.002
magaria,13.0,8.91,NE,1587337099,26.69,13.0,2.19,66.0,80.042
privolzhskiy,51.4,46.03,RU,1587337099,7.78,54.0,0.89,92.0,46.004000000000005
mount darwin,-16.77,31.58,ZW,1587337100,16.1,62.0,1.68,65.0,60.980000000000004
northam,51.03,-4.22,GB,1587336823,11.11,70.0,2.68,95.0,51.998000000000005
nalut,30.33,10.85,LY,1587336832,23.5,29.0,13.86,93.0,74.30000000000001
belmonte,-15.86,-38.88,BR,1587337101,24.0,78.0,2.6,75.0,75.19999999999999
belaya gora,68.53,146.42,RU,1587337102,-11.85,91.0,4.1,85.0,10.669999999999998
dicabisagan,17.08,122.42,PH,1587337102,27.66,79.0,3.17,100.0,81.788
augusto correa,-1.02,-46.63,BR,1587337102,24.82,93.0,1.76,36.0,76.676
carutapera,-1.2,-46.02,BR,1587337102,26.41,85.0,4.02,59.0,79.538
george,-33.96,22.46,ZA,1587337102,16.0,72.0,1.5,0.0,60.8
chippewa falls,44.94,-91.39,US,1587337102,10.0,18.0,5.7,1.0,50.0
oyama,36.3,139.8,JP,1587337102,12.78,78.0,2.09,100.0,55.004000000000005
san quintin,30.48,-115.95,MX,1587337102,16.85,66.0,8.14,87.0,62.33
sirohi,24.88,72.87,IN,1587337102,24.58,44.0,2.56,96.0,76.244
kruisfontein,-34.0,24.73,ZA,1587337103,19.56,49.0,1.87,20.0,67.208
soyo,-6.13,12.37,AO,1587337103,26.46,81.0,0.91,94.0,79.628
manuk mangkaw,4.8,119.85,PH,1587337103,29.04,73.0,3.83,83.0,84.27199999999999
sorland,67.67,12.69,NO,1587336871,4.9,94.0,8.5,100.0,40.82
miri,4.41,114.01,MY,1587337103,26.0,94.0,1.5,75.0,78.80000000000001
lakatoro,-16.1,167.42,VU,1587337103,28.0,83.0,2.1,75.0,82.4
san miguel,13.48,-88.18,SV,1587337103,29.51,56.0,3.12,1.0,85.118
pincher creek,49.48,-113.95,CA,1587337103,13.33,32.0,6.43,1.0,55.994
maharajganj,27.13,83.57,IN,1587337103,23.81,42.0,2.13,77.0,74.858
shelburne,44.08,-80.2,CA,1587336939,3.0,86.0,6.7,90.0,37.4
dingle,11.0,122.67,PH,1587337104,28.51,76.0,5.56,89.0,83.318
baruun-urt,46.68,113.28,MN,1587337104,-5.09,72.0,6.83,83.0,22.838
el carmen,8.51,-73.45,CO,1587337104,22.09,72.0,1.34,98.0,71.762
port hardy,50.7,-127.42,CA,1587337104,11.0,76.0,2.6,75.0,51.8
boyolangu,-8.12,111.89,ID,1587337104,26.3,81.0,1.27,94.0,79.34
aljezur,37.32,-8.8,PT,1587337104,13.89,77.0,3.84,89.0,57.001999999999995
ormara,25.21,64.64,PK,1587337104,25.3,84.0,4.91,66.0,77.54
trabzon,40.92,39.83,TR,1587337104,12.0,76.0,1.5,37.0,53.599999999999994
kampene,-3.6,26.67,CD,1587337105,19.1,82.0,0.24,40.0,66.38
paracuru,-3.41,-39.03,BR,1587337105,29.0,70.0,2.6,20.0,84.19999999999999
polovragi,45.18,23.8,RO,1587337105,9.64,75.0,0.74,99.0,49.352000000000004
misratah,32.38,15.09,LY,1587337105,19.58,58.0,10.21,100.0,67.244
beringovskiy,63.05,179.32,RU,1587337105,-6.44,96.0,8.17,100.0,20.408
port blair,11.67,92.75,IN,1587337105,28.51,77.0,2.85,11.0,83.318
iralaya,15.0,-83.23,HN,1587337105,27.07,75.0,3.94,0.0,80.726
qaqortoq,60.72,-46.03,GL,1587337084,0.0,91.0,0.5,0.0,32.0
manzanillo,20.34,-77.12,CU,1587336825,26.69,76.0,2.15,15.0,80.042
geraldton,-28.77,114.6,AU,1587337106,13.0,87.0,4.6,0.0,55.400000000000006
wahiawa,21.5,-158.02,US,1587337106,28.0,69.0,2.6,90.0,82.4
kathmandu,27.72,85.32,NP,1587336924,14.0,82.0,2.61,40.0,57.2
maltahohe,-24.83,16.98,NA,1587337106,21.95,30.0,4.33,67.0,71.50999999999999
mahanje,-9.93,35.33,TZ,1587337106,16.28,71.0,0.99,44.0,61.304
sishui,35.65,117.28,CN,1587337106,13.33,37.0,6.78,69.0,55.994
hit,33.64,42.83,IQ,1587337106,23.43,33.0,2.85,4.0,74.174
pogar,52.55,33.26,RU,1587337107,0.47,88.0,3.21,34.0,32.846
griffith,41.53,-87.42,US,1587337107,10.0,57.0,5.1,1.0,50.0
plettenberg bay,-34.05,23.37,ZA,1587337107,19.39,59.0,2.17,0.0,66.902
minot,48.23,-101.3,US,1587337107,14.0,19.0,11.8,1.0,57.2
wake forest,35.98,-78.51,US,1587337107,20.0,68.0,2.56,90.0,68.0
senanga,-16.12,23.27,ZM,1587337107,18.82,59.0,1.82,28.0,65.876
ryotsu,38.08,138.43,JP,1587337107,10.0,93.0,2.6,75.0,50.0
kargasok,59.06,80.86,RU,1587337108,6.45,79.0,3.36,100.0,43.61
malanje,-9.54,16.34,AO,1587336845,17.33,70.0,1.14,43.0,63.194
benguela,-12.58,13.41,AO,1587337014,25.7,82.0,5.0,99.0,78.25999999999999
apatou,5.16,-54.35,GF,1587337108,24.07,95.0,1.17,100.0,75.326
tigil,57.8,158.67,RU,1587337064,-7.27,92.0,2.24,96.0,18.914
caravelas,-17.71,-39.25,BR,1587336917,24.49,76.0,6.88,78.0,76.082
waingapu,-9.66,120.26,ID,1587337108,27.45,70.0,1.31,92.0,81.41
stephenville,32.22,-98.2,US,1587337108,29.0,17.0,6.7,1.0,84.19999999999999
kasongo-lunda,-6.47,16.82,CD,1587337108,21.61,74.0,0.25,89.0,70.898
santa isabel,-23.32,-46.22,BR,1587337109,19.0,77.0,3.1,75.0,66.19999999999999
tura,25.52,90.22,IN,1587337109,20.34,85.0,0.74,26.0,68.612
carbonia,39.17,8.52,IT,1587337109,17.78,93.0,1.0,75.0,64.00399999999999
labuan,5.28,115.24,MY,1587337109,27.0,100.0,1.68,75.0,80.6
roseburg,43.22,-123.34,US,1587337109,20.0,34.0,2.1,1.0,68.0
kijang,35.24,129.21,KR,1587337109,11.0,87.0,1.5,20.0,51.8
homer,59.64,-151.55,US,1587337109,11.0,57.0,3.1,90.0,51.8
urumqi,43.8,87.6,CN,1587337109,16.0,41.0,2.0,30.0,60.8
muroto,33.28,134.15,JP,1587337110,16.0,93.0,3.6,75.0,60.8
shimsk,58.21,30.71,RU,1587337110,-0.38,98.0,2.07,7.0,31.316
eskisehir,39.78,30.52,TR,1587337110,9.0,66.0,2.6,15.0,48.2
bloomington,44.84,-93.3,US,1587337110,10.56,24.0,3.1,20.0,51.008
korla,41.76,86.15,CN,1587337110,14.44,45.0,2.24,100.0,57.992
lamar,33.67,-95.58,US,1587337110,17.78,100.0,2.6,90.0,64.00399999999999
majene,-3.54,118.97,ID,1587337110,27.2,79.0,1.42,97.0,80.96
lappeenranta,61.06,28.19,FI,1587337111,3.0,64.0,2.6,83.0,37.4
